{"category_code":"web","description":"Tech Support Community","founded_year":2013,"name":"Fixya","number_of_employees":30,"lat":37.566879,"long":-122.323895,"country":"USA","position":{"type":"Point","coordinates":[-122.323895,37.566879]}}
{"category_code":"games_video","description":"","founded_year":2009,"name":"alluc","number_of_employees":7,"lat":53.707739,"long":10.023246,"country":"DEU","position":{"type":"Point","coordinates":[10.023246,53.707739]}}
{"category_code":"games_video","description":"social gaming platform","founded_year":2011,"name":"Social Gaming Network","number_of_employees":100,"lat":37.446823,"long":-122.161523,"country":"USA","position":{"type":"Point","coordinates":[-122.161523,37.446823]}}
{"category_code":"games_video","description":"social gaming platform","founded_year":2011,"name":"Social Gaming Network","number_of_employees":100,"lat":34.0698494,"long":-118.4054182,"country":"USA","position":{"type":"Point","coordinates":[-118.4054182,34.0698494]}}
{"category_code":"games_video","description":"Educational Games","founded_year":2009,"name":"Crootpad","number_of_employees":2,"lat":42.091078,"long":-88.288749,"country":"USA","position":{"type":"Point","coordinates":[-88.288749,42.091078]}}
{"category_code":"software","description":"Financial Engineering Platform","founded_year":2009,"name":"Macroaxis","number_of_employees":8,"lat":37.7896292,"long":-122.3998782,"country":"USA","position":{"type":"Point","coordinates":[-122.3998782,37.7896292]}}
{"category_code":"games_video","description":"People Powered Radio","founded_year":2011,"name":"Fuzz","number_of_employees":6,"lat":37.760524,"long":-122.387799,"country":"USA","position":{"type":"Point","coordinates":[-122.387799,37.760524]}}
{"category_code":"web","description":"Take Control of Your Own Search Results","founded_year":2009,"name":"BrandYourself","number_of_employees":22,"lat":42.275263,"long":-71.24762,"country":"USA","position":{"type":"Point","coordinates":[-71.24762,42.275263]}}
{"category_code":"web","description":"College Life Online","founded_year":2010,"name":"CollegeConvo","number_of_employees":2,"lat":40.650291,"long":-74.294395,"country":"USA","position":{"type":"Point","coordinates":[-74.294395,40.650291]}}
{"category_code":"software","description":"Big data automotive marketing platform","founded_year":2012,"name":"Carfeine","number_of_employees":5,"lat":38.989124,"long":-77.026676,"country":"USA","position":{"type":"Point","coordinates":[-77.026676,38.989124]}}
{"category_code":"web","description":"","founded_year":2011,"name":"Ziippi","number_of_employees":6,"lat":37.4440981,"long":-122.1612868,"country":"USA","position":{"type":"Point","coordinates":[-122.1612868,37.4440981]}}
{"category_code":"games_video","description":"","founded_year":2010,"name":"Titan Gaming","number_of_employees":18,"lat":53.544711,"long":-113.515769,"country":"USA","position":{"type":"Point","coordinates":[-113.515769,53.544711]}}
{"category_code":"software","description":"","founded_year":2009,"name":"BitRock","number_of_employees":20,"lat":37.78424,"long":-122.274771,"country":"USA","position":{"type":"Point","coordinates":[-122.274771,37.78424]}}
{"category_code":"software","description":"","founded_year":2010,"name":"JumpForward","number_of_employees":30,"lat":41.857204,"long":-87.623923,"country":"USA","position":{"type":"Point","coordinates":[-87.623923,41.857204]}}
{"category_code":"web","description":"Online Holiday Rental","founded_year":2009,"name":"CompareAway","number_of_employees":5,"lat":54.703145,"long":-1.574948,"country":"GBR","position":{"type":"Point","coordinates":[-1.574948,54.703145]}}
{"category_code":"web","description":"Video-based online test prep","founded_year":2009,"name":"Magoosh","number_of_employees":13,"lat":37.871087,"long":-122.270913,"country":"USA","position":{"type":"Point","coordinates":[-122.270913,37.871087]}}
{"category_code":"software","description":"","founded_year":2012,"name":"Navara","number_of_employees":80,"lat":52.126616,"long":5.038078,"country":"NLD","position":{"type":"Point","coordinates":[5.038078,52.126616]}}
{"category_code":"web","description":"Conversational Q&A Service","founded_year":2009,"name":"Formspring","number_of_employees":19,"lat":39.9052263,"long":-86.0547016,"country":"USA","position":{"type":"Point","coordinates":[-86.0547016,39.9052263]}}
{"category_code":"web","description":"Every deal. One place.","founded_year":2010,"name":"Yipit","number_of_employees":23,"lat":40.744618,"long":-73.987764,"country":"USA","position":{"type":"Point","coordinates":[-73.987764,40.744618]}}
{"category_code":"web","description":"Social media sharing platform","founded_year":2013,"name":"Clowdy","number_of_employees":11,"lat":53.4837067,"long":-2.2439492,"country":"GBR","position":{"type":"Point","coordinates":[-2.2439492,53.4837067]}}
{"category_code":"web","description":"used car buying service","founded_year":2009,"name":"Carsala","number_of_employees":8,"lat":37.870457,"long":-122.268354,"country":"USA","position":{"type":"Point","coordinates":[-122.268354,37.870457]}}
{"category_code":"software","description":"Fast, secure teamwork platform","founded_year":2011,"name":"Unison Technologies","number_of_employees":30,"lat":40.7645772,"long":-73.9799007,"country":"USA","position":{"type":"Point","coordinates":[-73.9799007,40.7645772]}}
{"category_code":"games_video","description":"Reality social and gaming network","founded_year":2010,"name":"Tengaged","number_of_employees":1,"lat":41.4241228,"long":2.1634249,"country":"ESP","position":{"type":"Point","coordinates":[2.1634249,41.4241228]}}
{"category_code":"software","description":"","founded_year":2010,"name":"Reachoo","number_of_employees":3,"lat":26.2480738,"long":-80.135487,"country":"USA","position":{"type":"Point","coordinates":[-80.135487,26.2480738]}}
{"category_code":"games_video","description":"Film reaching far.","founded_year":2010,"name":"Indee","number_of_employees":3,"lat":37.8053241,"long":-122.4052761,"country":"USA","position":{"type":"Point","coordinates":[-122.4052761,37.8053241]}}
{"category_code":"web","description":"iPhone Fitness Games","founded_year":2009,"name":"GymFu","number_of_employees":3,"lat":50.841938,"long":-1.7884785,"country":"GBR","position":{"type":"Point","coordinates":[-1.7884785,50.841938]}}
{"category_code":"web","description":"Dating Match Notification App","founded_year":2009,"name":"Do You Wanna Hook Up?","number_of_employees":3,"lat":40.5889016,"long":-73.9447994,"country":"USA","position":{"type":"Point","coordinates":[-73.9447994,40.5889016]}}
{"category_code":"web","description":"Dating Service","founded_year":2009,"name":"facelovefinder","number_of_employees":1,"lat":25.5230058,"long":-103.4174464,"country":"MEX","position":{"type":"Point","coordinates":[-103.4174464,25.5230058]}}
{"category_code":"web","description":"Print & SMS discount Coupons","founded_year":2010,"name":"eCampusCash","number_of_employees":3,"lat":40.650291,"long":-74.294395,"country":"USA","position":{"type":"Point","coordinates":[-74.294395,40.650291]}}
{"category_code":"web","description":"Vacation Rental Search Engine","founded_year":2009,"name":"Otalo","number_of_employees":2,"lat":42.3756007,"long":-72.4436464,"country":"USA","position":{"type":"Point","coordinates":[-72.4436464,42.3756007]}}
{"category_code":"web","description":"Technology Blog","founded_year":2009,"name":"Digital Meld","number_of_employees":5,"lat":29.714229,"long":-95.527479,"country":"USA","position":{"type":"Point","coordinates":[-95.527479,29.714229]}}
{"category_code":"web","description":"Business Social Media Tools","founded_year":2009,"name":"Twtapps","number_of_employees":1,"lat":45.4928591,"long":-73.5825418,"country":"CAN","position":{"type":"Point","coordinates":[-73.5825418,45.4928591]}}
{"category_code":"web","description":"Job Postings for students","founded_year":2009,"name":"GrouperEye","number_of_employees":3,"lat":38.9169394,"long":-77.0852258,"country":"USA","position":{"type":"Point","coordinates":[-77.0852258,38.9169394]}}
{"category_code":"web","description":"Contact and media management","founded_year":2009,"name":"Interacto","number_of_employees":2,"lat":51.3673409,"long":5.5858466,"country":"NLD","position":{"type":"Point","coordinates":[5.5858466,51.3673409]}}
{"category_code":"web","description":"Online Rent Payments","founded_year":2009,"name":"Asurrent","number_of_employees":3,"lat":34.013247,"long":-84.495636,"country":"USA","position":{"type":"Point","coordinates":[-84.495636,34.013247]}}
{"category_code":"web","description":"Specialized Web Communities","founded_year":2009,"name":"Ontology2","number_of_employees":2,"lat":42.362886,"long":-76.356869,"country":"USA","position":{"type":"Point","coordinates":[-76.356869,42.362886]}}
{"category_code":"games_video","description":"Private Music Streaming and Sharing","founded_year":2009,"name":"Music For Busy People","number_of_employees":3,"lat":40.727763,"long":-73.976169,"country":"USA","position":{"type":"Point","coordinates":[-73.976169,40.727763]}}
{"category_code":"web","description":"Customized Programming","founded_year":2009,"name":"alteregoweb","number_of_employees":1,"lat":42.2674977,"long":2.9608395,"country":"ESP","position":{"type":"Point","coordinates":[2.9608395,42.2674977]}}
{"category_code":"software","description":"Internet Centric Systems","founded_year":2010,"name":"kinDragon","number_of_employees":1,"lat":27.4081935,"long":-82.5294065,"country":"USA","position":{"type":"Point","coordinates":[-82.5294065,27.4081935]}}
{"category_code":"web","description":"Wall Art Creation","founded_year":2009,"name":"CanvasGrafix","number_of_employees":2,"lat":38.675833,"long":-90.482766,"country":"USA","position":{"type":"Point","coordinates":[-90.482766,38.675833]}}
{"category_code":"web","description":"In-Browser Audio, Video Chat","founded_year":2009,"name":"Tinychat","number_of_employees":5,"lat":42.3756409,"long":-72.5196907,"country":"USA","position":{"type":"Point","coordinates":[-72.5196907,42.3756409]}}
{"category_code":"software","description":"GitHub for Translations","founded_year":2009,"name":"Transifex","number_of_employees":12,"lat":37.4513629,"long":-122.1842112,"country":"USA","position":{"type":"Point","coordinates":[-122.1842112,37.4513629]}}
{"category_code":"games_video","description":"Social Mobile Casino Games","founded_year":2010,"name":"BASH Gaming","number_of_employees":25,"lat":37.5561712,"long":-122.0780632,"country":"USA","position":{"type":"Point","coordinates":[-122.0780632,37.5561712]}}
{"category_code":"games_video","description":"Social Mobile Casino Games","founded_year":2010,"name":"BASH Gaming","number_of_employees":25,"lat":12.971606,"long":77.594376,"country":"IND","position":{"type":"Point","coordinates":[77.594376,12.971606]}}
{"category_code":"software","description":"application migration software","founded_year":2009,"name":"AppZero","number_of_employees":50,"lat":42.6751888,"long":-71.1469003,"country":"USA","position":{"type":"Point","coordinates":[-71.1469003,42.6751888]}}
{"category_code":"software","description":"PebbleForge IT Solutions and Service","founded_year":2009,"name":"PebbleForge","number_of_employees":4,"lat":9.9396253,"long":76.2594981,"country":"IND","position":{"type":"Point","coordinates":[76.2594981,9.9396253]}}
{"category_code":"web","description":"List of CEOs and Companies using Twitter","founded_year":2009,"name":"TwitterCorp","number_of_employees":1,"lat":46.0439,"long":-118.378229,"country":"USA","position":{"type":"Point","coordinates":[-118.378229,46.0439]}}
{"category_code":"web","description":"Renting Portal","founded_year":2009,"name":"rent2friend","number_of_employees":1,"lat":51.5001524,"long":-0.1262362,"country":"GBR","position":{"type":"Point","coordinates":[-0.1262362,51.5001524]}}
{"category_code":"web","description":"Secure Messaging Escrow Platform","founded_year":2009,"name":"VitalLock","number_of_employees":4,"lat":42.362856,"long":-71.083762,"country":"USA","position":{"type":"Point","coordinates":[-71.083762,42.362856]}}
{"category_code":"software","description":"Home Business Software","founded_year":2009,"name":"OBE Pro","number_of_employees":4,"lat":28.1524632,"long":-80.5883964,"country":"USA","position":{"type":"Point","coordinates":[-80.5883964,28.1524632]}}
{"category_code":"web","description":"Pet Community","founded_year":2009,"name":"Cuteness Pet Community","number_of_employees":2,"lat":33.989029,"long":-118.462421,"country":"USA","position":{"type":"Point","coordinates":[-118.462421,33.989029]}}
{"category_code":"web","description":"Social Media Monitor and Identity Hub","founded_year":2009,"name":"yiid","number_of_employees":9,"lat":49.5507557,"long":8.6759098,"country":"DEU","position":{"type":"Point","coordinates":[8.6759098,49.5507557]}}
{"category_code":"web","description":"Online stock photography microstock","founded_year":2009,"name":"Fotomina","number_of_employees":4,"lat":60.123399,"long":24.4280745,"country":"FIN","position":{"type":"Point","coordinates":[24.4280745,60.123399]}}
{"category_code":"software","description":"Online Calendar and Appointment App","founded_year":2009,"name":"Setster","number_of_employees":3,"lat":34.0909811,"long":-118.325739,"country":"USA","position":{"type":"Point","coordinates":[-118.325739,34.0909811]}}
{"category_code":"software","description":"Digital platform for amateur sports.","founded_year":2009,"name":"GameChanger Media","number_of_employees":20,"lat":40.7078343,"long":-74.0136605,"country":"USA","position":{"type":"Point","coordinates":[-74.0136605,40.7078343]}}
{"category_code":"games_video","description":"Mobile Games","founded_year":2009,"name":"Z2Live","number_of_employees":130,"lat":47.6103008,"long":-122.3399782,"country":"USA","position":{"type":"Point","coordinates":[-122.3399782,47.6103008]}}
{"category_code":"web","description":"Enhanced web browsing","founded_year":2009,"name":"Gate 53|10 Technologies","number_of_employees":4,"lat":53.5736401,"long":10.0184565,"country":"DEU","position":{"type":"Point","coordinates":[10.0184565,53.5736401]}}
{"category_code":"web","description":"Creative Network","founded_year":2009,"name":"Tongal","number_of_employees":8,"lat":34.007112,"long":-118.489748,"country":"USA","position":{"type":"Point","coordinates":[-118.489748,34.007112]}}
{"category_code":"web","description":"Increase Relevant Blog Traffic","founded_year":2009,"name":"Blog Traffic Exchange","number_of_employees":1,"lat":37.4484914,"long":-122.1802812,"country":"USA","position":{"type":"Point","coordinates":[-122.1802812,37.4484914]}}
{"category_code":"software","description":"twitter api startup","founded_year":2009,"name":"crush tweet","number_of_employees":1,"lat":32.920073,"long":-96.740444,"country":"USA","position":{"type":"Point","coordinates":[-96.740444,32.920073]}}
{"category_code":"web","description":"Business Software Comparisons","founded_year":2009,"name":"Trigora","number_of_employees":7,"lat":-37.742893,"long":145.065044,"country":"AUS","position":{"type":"Point","coordinates":[145.065044,-37.742893]}}
{"category_code":"software","description":"software development ","founded_year":2009,"name":"CineSoft","number_of_employees":5,"lat":55.7794043,"long":37.6899674,"country":"RUS","position":{"type":"Point","coordinates":[37.6899674,55.7794043]}}
{"category_code":"software","description":"","founded_year":2009,"name":"Antelink","number_of_employees":10,"lat":48.8524775,"long":2.3660117,"country":"FRA","position":{"type":"Point","coordinates":[2.3660117,48.8524775]}}
{"category_code":"web","description":"UK community site","founded_year":2009,"name":"Tweenjo","number_of_employees":2,"lat":51.5137747,"long":-0.1459893,"country":"GBR","position":{"type":"Point","coordinates":[-0.1459893,51.5137747]}}
{"category_code":"web","description":"Professional network for psychiatrists","founded_year":2009,"name":"psychiatryRounds","number_of_employees":10,"lat":37.400465,"long":-122.073003,"country":"USA","position":{"type":"Point","coordinates":[-122.073003,37.400465]}}
{"category_code":"web","description":"Directory for Storage Space","founded_year":2009,"name":"Space Spare","number_of_employees":2,"lat":51.5603951,"long":-0.1365725,"country":"GBR","position":{"type":"Point","coordinates":[-0.1365725,51.5603951]}}
{"category_code":"web","description":"Web Services & Online Marketing","founded_year":2009,"name":"Webteilchen","number_of_employees":2,"lat":52.5296736,"long":13.6281888,"country":"DEU","position":{"type":"Point","coordinates":[13.6281888,52.5296736]}}
{"category_code":"games_video","description":"Used video game marketplace","founded_year":2009,"name":"Gameleaper","number_of_employees":1,"lat":32.8270045,"long":-96.8432224,"country":"USA","position":{"type":"Point","coordinates":[-96.8432224,32.8270045]}}
{"category_code":"web","description":"social, local, mobile services","founded_year":2009,"name":"quoobs","number_of_employees":3,"lat":52.5189904,"long":13.4663753,"country":"DEU","position":{"type":"Point","coordinates":[13.4663753,52.5189904]}}
{"category_code":"games_video","description":"Social Media Marketing","founded_year":2011,"name":"Hayen Company","number_of_employees":1,"lat":34.019114,"long":-81.004871,"country":"USA","position":{"type":"Point","coordinates":[-81.004871,34.019114]}}
{"category_code":"software","description":"Personalized autoupdated calendar system","founded_year":2009,"name":"1calendar","number_of_employees":8,"lat":55.6770321,"long":12.5751278,"country":"DNK","position":{"type":"Point","coordinates":[12.5751278,55.6770321]}}
{"category_code":"software","description":"Personalized autoupdated calendar system","founded_year":2009,"name":"1calendar","number_of_employees":8,"lat":55.6802318,"long":12.524884,"country":"DNK","position":{"type":"Point","coordinates":[12.524884,55.6802318]}}
{"category_code":"games_video","description":"Live Video Streaming","founded_year":2009,"name":"BIT TV","number_of_employees":10,"lat":45.488419,"long":-122.642156,"country":"USA","position":{"type":"Point","coordinates":[-122.642156,45.488419]}}
{"category_code":"web","description":"Real Time News","founded_year":2009,"name":"all140","number_of_employees":4,"lat":48.2114213,"long":16.3736319,"country":"AUT","position":{"type":"Point","coordinates":[16.3736319,48.2114213]}}
{"category_code":"software","description":"Visual IT Asset Management","founded_year":2009,"name":"AlphaPoint Technology","number_of_employees":10,"lat":27.3858,"long":-82.423,"country":"USA","position":{"type":"Point","coordinates":[-82.423,27.3858]}}
{"category_code":"web","description":"Lead Generation Services","founded_year":2009,"name":"OCTALINE","number_of_employees":2,"lat":48.8964115,"long":2.2863338,"country":"FRA","position":{"type":"Point","coordinates":[2.2863338,48.8964115]}}
{"category_code":"software","description":"Online Booking and Invoicing","founded_year":2009,"name":"Book'd","number_of_employees":1,"lat":38.9569894,"long":-92.3227556,"country":"USA","position":{"type":"Point","coordinates":[-92.3227556,38.9569894]}}
{"category_code":"software","description":"Ruby on Rails Web Development Shop","founded_year":2009,"name":"makandra","number_of_employees":8,"lat":48.3400291,"long":10.9059804,"country":"DEU","position":{"type":"Point","coordinates":[10.9059804,48.3400291]}}
{"category_code":"web","description":"Interactive Statistical Database","founded_year":2009,"name":"Statugle","number_of_employees":1,"lat":41.9205483,"long":-87.6531805,"country":"USA","position":{"type":"Point","coordinates":[-87.6531805,41.9205483]}}
{"category_code":"software","description":"Widgets and Apps for Web 2.0 and Mobile","founded_year":2009,"name":"DP7 Digital","number_of_employees":6,"lat":-23.5815208,"long":-46.6773686,"country":"BRA","position":{"type":"Point","coordinates":[-46.6773686,-23.5815208]}}
{"category_code":"software","description":"Widgets and Apps for Web 2.0 and Mobile","founded_year":2009,"name":"DP7 Digital","number_of_employees":6,"lat":-27.5995476,"long":-48.5483418,"country":"BRA","position":{"type":"Point","coordinates":[-48.5483418,-27.5995476]}}
{"category_code":"software","description":"network and desktop app prototyper","founded_year":2009,"name":"JustProto","number_of_employees":11,"lat":54.520135,"long":18.5416342,"country":"POL","position":{"type":"Point","coordinates":[18.5416342,54.520135]}}
{"category_code":"web","description":"Location-based social network","founded_year":2009,"name":"ToolzDO","number_of_employees":1,"lat":26.280346,"long":-80.186473,"country":"USA","position":{"type":"Point","coordinates":[-80.186473,26.280346]}}
{"category_code":"web","description":"Music Discovery Engine","founded_year":2009,"name":"jamWee","number_of_employees":5,"lat":40.555566,"long":-74.283346,"country":"USA","position":{"type":"Point","coordinates":[-74.283346,40.555566]}}
{"category_code":"web","description":"Independent Hostings Reviews","founded_year":2009,"name":"Hostarting","number_of_employees":2,"lat":39.8725119,"long":-4.0210296,"country":"ESP","position":{"type":"Point","coordinates":[-4.0210296,39.8725119]}}
{"category_code":"web","description":"","founded_year":2009,"name":"expertnews","number_of_employees":1,"lat":53.5688101,"long":9.9819779,"country":"DEU","position":{"type":"Point","coordinates":[9.9819779,53.5688101]}}
{"category_code":"web","description":"location-based social network","founded_year":2009,"name":"Flaggpole","number_of_employees":4,"lat":47.620973,"long":-122.347276,"country":"USA","position":{"type":"Point","coordinates":[-122.347276,47.620973]}}
{"category_code":"web","description":"Professional reference repository","founded_year":2009,"name":"ReferenceBot","number_of_employees":1,"lat":26.706239,"long":-80.0520862,"country":"USA","position":{"type":"Point","coordinates":[-80.0520862,26.706239]}}
{"category_code":"software","description":"SaaS Recruiting Software","founded_year":2009,"name":"The Resumator","number_of_employees":40,"lat":40.438423,"long":-80.001933,"country":"USA","position":{"type":"Point","coordinates":[-80.001933,40.438423]}}
{"category_code":"web","description":"Web 2.0 Applications Directory. ","founded_year":2009,"name":"AppUseful","number_of_employees":7,"lat":30.2961708,"long":-97.7389543,"country":"USA","position":{"type":"Point","coordinates":[-97.7389543,30.2961708]}}
{"category_code":"games_video","description":"Videogames","founded_year":2009,"name":"Undead Code Studios","number_of_employees":5,"lat":40.6367104,"long":-3.9980485,"country":"ESP","position":{"type":"Point","coordinates":[-3.9980485,40.6367104]}}
{"category_code":"software","description":"Cover india on a page","founded_year":2009,"name":"IndiaOnAPage","number_of_employees":8,"lat":12.9164537,"long":77.6101165,"country":"IND","position":{"type":"Point","coordinates":[77.6101165,12.9164537]}}
{"category_code":"web","description":"Social network for the art community","founded_year":2009,"name":"ArtNeighbor","number_of_employees":5,"lat":40.7489381,"long":-73.9918181,"country":"USA","position":{"type":"Point","coordinates":[-73.9918181,40.7489381]}}
{"category_code":"web","description":"Real time video twitter","founded_year":2009,"name":"Movip","number_of_employees":2,"lat":38.7071631,"long":-9.135517,"country":"PRT","position":{"type":"Point","coordinates":[-9.135517,38.7071631]}}
{"category_code":"games_video","description":"safe children's virtual world","founded_year":2010,"name":"ekidnaworld","number_of_employees":10,"lat":-27.4574861,"long":153.033686,"country":"AUS","position":{"type":"Point","coordinates":[153.033686,-27.4574861]}}
{"category_code":"games_video","description":"gamebased learning platform for children","founded_year":2009,"name":"scoyo","number_of_employees":13,"lat":53.5622698,"long":9.9490139,"country":"DEU","position":{"type":"Point","coordinates":[9.9490139,53.5622698]}}
{"category_code":"web","description":"Interactive Business cards","founded_year":2009,"name":"OnePage","number_of_employees":2,"lat":53.3706564,"long":-1.5613493,"country":"GBR","position":{"type":"Point","coordinates":[-1.5613493,53.3706564]}}
{"category_code":"web","description":"Free Online Dating","founded_year":2009,"name":"FindandSmile","number_of_employees":2,"lat":48.9974246,"long":8.4649954,"country":"DEU","position":{"type":"Point","coordinates":[8.4649954,48.9974246]}}
{"category_code":"web","description":"Seed Stage","founded_year":2009,"name":"Udorse","number_of_employees":3,"lat":40.756054,"long":-73.986951,"country":"USA","position":{"type":"Point","coordinates":[-73.986951,40.756054]}}
{"category_code":"games_video","description":"music streaming sharing site ","founded_year":2009,"name":"Meuzer","number_of_employees":3,"lat":37.320052,"long":-121.877636,"country":"USA","position":{"type":"Point","coordinates":[-121.877636,37.320052]}}
{"category_code":"web","description":"Real Life Dating","founded_year":2009,"name":"YesOrNow","number_of_employees":3,"lat":48.882769,"long":2.336453,"country":"FRA","position":{"type":"Point","coordinates":[2.336453,48.882769]}}
{"category_code":"web","description":"Consumer Video Reviews","founded_year":2009,"name":"HURRYCAM","number_of_employees":5,"lat":48.8566667,"long":2.3509871,"country":"FRA","position":{"type":"Point","coordinates":[2.3509871,48.8566667]}}
{"category_code":"web","description":"Social Network 4 Bar & Hospitality Staff","founded_year":2009,"name":"Bar Exchange","number_of_employees":10,"lat":51.5395914,"long":-0.1525048,"country":"GBR","position":{"type":"Point","coordinates":[-0.1525048,51.5395914]}}
{"category_code":"software","description":"Web-based GTD Task Manager","founded_year":2009,"name":"Nirvana","number_of_employees":3,"lat":45.5058782,"long":-73.5673333,"country":"CAN","position":{"type":"Point","coordinates":[-73.5673333,45.5058782]}}
{"category_code":"web","description":"Real Estate Investing","founded_year":2009,"name":"Finest Expert","number_of_employees":3,"lat":37.775196,"long":-122.419204,"country":"USA","position":{"type":"Point","coordinates":[-122.419204,37.775196]}}
{"category_code":"web","description":"Online Job Search","founded_year":2009,"name":"Buddingup","number_of_employees":2,"lat":43.477552,"long":-80.534491,"country":"CAN","position":{"type":"Point","coordinates":[-80.534491,43.477552]}}
{"category_code":"web","description":"Social Network for Homosexuals","founded_year":2009,"name":"ZIPQODE","number_of_employees":1,"lat":39.951639,"long":-75.163808,"country":"USA","position":{"type":"Point","coordinates":[-75.163808,39.951639]}}
{"category_code":"software","description":"solutions for the entertainment industry","founded_year":2009,"name":"Eventric","number_of_employees":10,"lat":41.9174637,"long":-87.6664837,"country":"USA","position":{"type":"Point","coordinates":[-87.6664837,41.9174637]}}
{"category_code":"web","description":"Online Business News Portal","founded_year":2009,"name":"Strategist News","number_of_employees":4,"lat":40.7489381,"long":-73.9918181,"country":"USA","position":{"type":"Point","coordinates":[-73.9918181,40.7489381]}}
{"category_code":"web","description":"Social media site for fashion","founded_year":2009,"name":"Ykone","number_of_employees":10,"lat":48.8566667,"long":2.3509871,"country":"FRA","position":{"type":"Point","coordinates":[2.3509871,48.8566667]}}
{"category_code":"software","description":"SaaS, ATS, Applicant Tracking System","founded_year":2009,"name":"ResuWe","number_of_employees":5,"lat":33.5341548,"long":-117.7769669,"country":"USA","position":{"type":"Point","coordinates":[-117.7769669,33.5341548]}}
{"category_code":"web","description":"Personalized Community Homepage","founded_year":2009,"name":"Startlike","number_of_employees":8,"lat":34.002737,"long":-81.018312,"country":"USA","position":{"type":"Point","coordinates":[-81.018312,34.002737]}}
{"category_code":"web","description":"Portal for start-up jobs\/internships","founded_year":2009,"name":"Enternships","number_of_employees":15,"lat":51.5215279,"long":-0.1038219,"country":"GBR","position":{"type":"Point","coordinates":[-0.1038219,51.5215279]}}
{"category_code":"web","description":"Digital receipts","founded_year":2009,"name":"Kvittar","number_of_employees":4,"lat":55.6057989,"long":12.9950742,"country":"SWE","position":{"type":"Point","coordinates":[12.9950742,55.6057989]}}
{"category_code":"software","description":"Taxi fares applications for smartphones","founded_year":2009,"name":"Taxi Fares app","number_of_employees":5,"lat":40.4244585,"long":-3.6990948,"country":"ESP","position":{"type":"Point","coordinates":[-3.6990948,40.4244585]}}
{"category_code":"software","description":"online seo service","founded_year":2009,"name":"Lipperhey","number_of_employees":6,"lat":52.3655578,"long":4.9345824,"country":"NLD","position":{"type":"Point","coordinates":[4.9345824,52.3655578]}}
{"category_code":"web","description":"Low Cost Resume Analysis","founded_year":2009,"name":"Vortimer","number_of_employees":2,"lat":38.905504,"long":-77.05681,"country":"USA","position":{"type":"Point","coordinates":[-77.05681,38.905504]}}
{"category_code":"web","description":"Twitter-powered microforum","founded_year":2009,"name":"140Ware","number_of_employees":3,"lat":18.2066344,"long":-67.1517568,"country":"PRI","position":{"type":"Point","coordinates":[-67.1517568,18.2066344]}}
{"category_code":"web","description":"Personal Shopping Comparison Service","founded_year":2009,"name":"Asyus","number_of_employees":7,"lat":37.241813,"long":-121.986779,"country":"USA","position":{"type":"Point","coordinates":[-121.986779,37.241813]}}
{"category_code":"web","description":"Software challenges and hackathons","founded_year":2009,"name":"ChallengePost","number_of_employees":17,"lat":40.7408042,"long":-74.00717,"country":"USA","position":{"type":"Point","coordinates":[-74.00717,40.7408042]}}
{"category_code":"software","description":"Simple File Sharing For Businesses","founded_year":2009,"name":"ftopia","number_of_employees":7,"lat":53.3328144,"long":-6.2493777,"country":"FRA","position":{"type":"Point","coordinates":[-6.2493777,53.3328144]}}
{"category_code":"software","description":"real-time and cloud apps","founded_year":2009,"name":"Tiverias Apps","number_of_employees":20,"lat":42.3672873,"long":-71.0814466,"country":"USA","position":{"type":"Point","coordinates":[-71.0814466,42.3672873]}}
{"category_code":"web","description":"Online Interactive Form Builder","founded_year":2009,"name":"HOTForms123","number_of_employees":2,"lat":34.0698912,"long":-118.405325,"country":"USA","position":{"type":"Point","coordinates":[-118.405325,34.0698912]}}
{"category_code":"games_video","description":"","founded_year":2009,"name":"Tiny Speck","number_of_employees":45,"lat":49.2824551,"long":-123.109217,"country":"CAN","position":{"type":"Point","coordinates":[-123.109217,49.2824551]}}